{"type":"FeatureCollection","features":[{"geometry":{"type":"Point","coordinates":[7.242841,49.403633]},"type":"Feature","properties":{"roadclosed":"false","description":"L 116 Eichelthaler M\u00fchle\n\nWeitere Informationen in der \n<a href=\"https://www.saarland.de/lfs/DE/aktuelles/wo_wird_gebaut/aktuelle-meldungen/medieninfos/2025/20251212_pm_l116_hanauer_muehle_eichelthalermuehle\" target=\"_blank\">Pressemitteilung</a> \n(externes Fenster)\n (Fahrbahninstandsetzung)","roadname":"","recordid":"290005362606-1541954228","number":99999,"starttime":"2025-12-23T00:00","endtime":"2026-06-30T23:59:59","event":""},"id":"fid--17a42d1c_19ec178e11b_-7fc1"},{"geometry":{"type":"Point","coordinates":[7.181568,49.362812]},"type":"Feature","properties":{"roadclosed":"false","description":"L 124 Wiebelskirchen\nKuchenbergstra\u00dfe 145-147\n\nWeitere Informationen in der \n<a href=\"https://www.saarland.de/lfs/DE/aktuelles/neues-vom-lfs/news/2024/2024_09_19_Stellungnahme_Kuchenbergstra%C3%9Fe\">Pressemitteilung</a> \n(externes Fenster)\n (Fahrbahninstandsetzung)","roadname":"Kuchenbergstra\u00dfe","recordid":"290005362842-398326563","number":99999,"starttime":"2022-11-28T00:00","endtime":"2026-12-31T23:59:59","event":""},"id":"fid--17a42d1c_19ec178e11b_-7fc3"},{"geometry":{"type":"Point","coordinates":[6.629885,49.441337]},"type":"Feature","properties":{"roadclosed":"false","description":"L 173 Merzig - Hilbringen \nInstandsetzung Br\u00fcckenbauwerk 5\n\nWeitere Informationen in der \n<a href=\"https://www.saarland.de/lfs/DE/aktuelles/wo_wird_gebaut/aktuelle-meldungen/medieninfos/2026/20260210_l173_merzig_hilbringer_bruecke\" target=\"_blank\">Pressemitteilung</a> \n(externes Fenster)\n (Br\u00fcckeninstandsetzung)","roadname":"Merziger Stra\u00dfe","recordid":"290005362811-1232321352","number":99999,"starttime":"2026-03-02T00:00","endtime":"2027-07-31T23:59:59","event":""},"id":"fid--17a42d1c_19ec178e11b_-7fc5"},{"geometry":{"type":"Point","coordinates":[7.070848,49.304075]},"type":"Feature","properties":{"roadclosed":"false","description":"L 125 Ortsdurchfahrt Sulzbach - Friedrichsthal\n4. Bauabschnitt (Fahrbahninstandsetzung)","roadname":"Sulzbachtalstra\u00dfe","recordid":"290005362932-294371159","number":99999,"starttime":"2026-05-20T00:00","endtime":"2026-07-01T23:59:59","event":""},"id":"fid--17a42d1c_19ec178e11b_-7fc7"},{"geometry":{"type":"Point","coordinates":[6.982752,49.319302]},"type":"Feature","properties":{"roadclosed":"false","description":"L 128 Anschlussstelle Riegelsberg - Holz (Fahrbahninstandhaltung)","roadname":"Saarstra\u00dfe","recordid":"290005362919933988997","number":99999,"starttime":"2026-06-01T00:00","endtime":"2026-06-26T23:59:59","event":""},"id":"fid--17a42d1c_19ec178e11b_-7fc9"},{"geometry":{"type":"Point","coordinates":[6.960644,49.296230]},"type":"Feature","properties":{"roadclosed":"false","description":"L 128 Anschlussstelle Riegelsberg - Holz (Fahrbahninstandhaltung)","roadname":"","recordid":"29000536292052644859","number":99999,"starttime":"2026-06-01T00:00","endtime":"2026-06-26T23:59:59","event":""},"id":"fid--17a42d1c_19ec178e11b_-7fcb"},{"geometry":{"type":"Point","coordinates":[6.871169,49.245416]},"type":"Feature","properties":{"roadclosed":"false","description":"L 271 Ortsdurchfahrt F\u00fcrstenhausen\n9. Bauabschnitt\nH\u00f6he Einm\u00fcndung Saarbr\u00fccker Stra\u00dfe\n\nWeitere Informationen in der \n<a href=\"https://www.saarland.de/lfs/DE/aktuelles/wo_wird_gebaut/aktuelle-meldungen/medieninfos/2025/20250319_l271_sanierungsarbeiten_fenne_fuerstenhausen\" target=\"_blank\">Pressemitteilung</a> \n(externes Fenster)\n\n\n (Fahrbahninstandsetzung)","roadname":"Saarbr\u00fccker Stra\u00dfe","recordid":"2900053630582065510796","number":99999,"starttime":"2026-06-10T00:00","endtime":"2026-07-19T23:59:59","event":""},"id":"fid--17a42d1c_19ec178e11b_-7fcd"},{"geometry":{"type":"Point","coordinates":[6.991902,49.523259]},"type":"Feature","properties":{"roadclosed":"false","description":"L 14